{"type":"FeatureCollection","features":[
{"type":"Feature","geometry":{"type":"Point","coordinates":[17.251299309589538,49.57505080419146]},"properties":{"capacity":"61","wheelchair":null,"name":"Bohemia","legend":"restaurace"}},
{"type":"Feature","geometry":{"type":"Point","coordinates":[17.28440370961147,49.59412640419845]},"properties":{"capacity":"84","wheelchair":null,"name":"Pizzeria u Jana","legend":"restaurace"}},
{"type":"Feature","geometry":{"type":"Point","coordinates":[17.24411510958427,49.578012804194955]},"properties":{"capacity":"40","wheelchair":"limited","name":"Radegast","legend":"restaurace"}},
{"type":"Feature","geometry":{"type":"Point","coordinates":[17.339526009647567,49.628236404211385]},"properties":{"capacity":"53","wheelchair":null,"name":"U Macků","legend":"restaurace"}},
{"type":"Feature","geometry":{"type":"Point","coordinates":[17.25167520958851,49.59403620420466]},"properties":{"capacity":"94","wheelchair":"yes","name":"Caesar","legend":"restaurace"}},
{"type":"Feature","geometry":{"type":"Point","coordinates":[17.262527109596146,49.5939496042025]},"properties":{"capacity":"72","wheelchair":null,"name":"Kozlovna","legend":"restaurace"}},
{"type":"Feature","geometry":{"type":"Point","coordinates":[17.274001909604294,49.59250520419927]},"properties":{"capacity":"51","wheelchair":null,"name":"M. D. Original 1869","legend":"restaurace"}},
{"type":"Feature","geometry":{"type":"Point","coordinates":[17.296691109621307,49.57658730418365]},"properties":{"capacity":"96","wheelchair":null,"name":"motorest u Sv. Jana","legend":"restaurace"}},
{"type":"Feature","geometry":{"type":"Point","coordinates":[17.294750509620087,49.57437450418254]},"properties":{"capacity":"30","wheelchair":"no","name":"Holický Statek","legend":"restaurace"}},
{"type":"Feature","geometry":{"type":"Point","coordinates":[17.27764300960682,49.59293740419888]},"properties":{"capacity":"46","wheelchair":null,"name":"Porto","legend":"restaurace"}},
{"type":"Feature","geometry":{"type":"Point","coordinates":[17.24889900958645,49.5953553042062]},"properties":{"capacity":"65","wheelchair":null,"name":"U Ptáka","legend":"restaurace"}},
{"type":"Feature","geometry":{"type":"Point","coordinates":[17.286783009613355,49.59091980419569]},"properties":{"capacity":"100","wheelchair":null,"name":"Steak restaurant","legend":"restaurace"}},
{"type":"Feature","geometry":{"type":"Point","coordinates":[17.364103209665295,49.6197043042006]},"properties":{"capacity":"96","wheelchair":"limited","name":"Hospůdka U Mikeše","legend":"restaurace"}},
{"type":"Feature","geometry":{"type":"Point","coordinates":[17.25764960959218,49.601497504208744]},"properties":{"capacity":"76","wheelchair":null,"name":"Restaurace Na Dlouhé","legend":"restaurace"}},
{"type":"Feature","geometry":{"type":"Point","coordinates":[17.249650809587237,49.59166040420348]},"properties":{"capacity":"73","wheelchair":null,"name":"Drápal","legend":"restaurace"}},
{"type":"Feature","geometry":{"type":"Point","coordinates":[17.247692709585646,49.59467120420598]},"properties":{"capacity":"98","wheelchair":null,"name":"Mr. Poke [poukej]","legend":"restaurace"}},
{"type":"Feature","geometry":{"type":"Point","coordinates":[17.25230090958908,49.59193290420313]},"properties":{"capacity":"92","wheelchair":null,"name":"Hanácká hospoda","legend":"restaurace"}},
{"type":"Feature","geometry":{"type":"Point","coordinates":[17.252205609589,49.592014304203225]},"properties":{"capacity":"58","wheelchair":null,"name":"U červeného volka","legend":"restaurace"}},
{"type":"Feature","geometry":{"type":"Point","coordinates":[17.252177509588705,49.59609450420605]},"properties":{"capacity":"57","wheelchair":"limited","name":"Jazz Tibet club","legend":"restaurace"}},
{"type":"Feature","geometry":{"type":"Point","coordinates":[17.25342180958979,49.59309500420375]},"properties":{"capacity":"45","wheelchair":null,"name":"V lese","legend":"restaurace"}},
{"type":"Feature","geometry":{"type":"Point","coordinates":[17.2496257095871,49.593363104204634]},"properties":{"capacity":"80","wheelchair":null,"name":"MacLaren's Pub","legend":"restaurace"}},
{"type":"Feature","geometry":{"type":"Point","coordinates":[17.232508409576685,49.56944430419121]},"properties":{"capacity":"79","wheelchair":null,"name":"Grill Pub","legend":"restaurace"}},
{"type":"Feature","geometry":{"type":"Point","coordinates":[17.245774609584128,49.59704500420793]},"properties":{"capacity":"80","wheelchair":null,"name":"Olmeca - Mexico","legend":"restaurace"}},
{"type":"Feature","geometry":{"type":"Point","coordinates":[17.264479609596943,49.60196900420778]},"properties":{"capacity":"61","wheelchair":null,"name":"Na Letné","legend":"restaurace"}},
{"type":"Feature","geometry":{"type":"Point","coordinates":[17.24690660958464,49.601168404210604]},"properties":{"capacity":"50","wheelchair":null,"name":"Sal de Mar","legend":"restaurace"}},
{"type":"Feature","geometry":{"type":"Point","coordinates":[17.234702709575547,49.60829260421802]},"properties":{"capacity":"47","wheelchair":null,"name":"U Kapličky","legend":"restaurace"}},
{"type":"Feature","geometry":{"type":"Point","coordinates":[17.250446409587795,49.59172060420328]},"properties":{"capacity":"76","wheelchair":null,"name":"Captain Morgan","legend":"restaurace"}},
{"type":"Feature","geometry":{"type":"Point","coordinates":[17.24975290958709,49.594699904205555]},"properties":{"capacity":"51","wheelchair":null,"name":"IL CASTELLO","legend":"restaurace"}},
{"type":"Feature","geometry":{"type":"Point","coordinates":[17.261037509594903,49.59649650420461]},"properties":{"capacity":"91","wheelchair":null,"name":"Bistrá kráva","legend":"restaurace"}},
{"type":"Feature","geometry":{"type":"Point","coordinates":[17.255661309591233,49.59509460420464]},"properties":{"capacity":"26","wheelchair":null,"name":"Cafe Restaurant Konvikt","legend":"restaurace"}},
{"type":"Feature","geometry":{"type":"Point","coordinates":[17.254458309590394,49.594736504204675]},"properties":{"capacity":"107","wheelchair":null,"name":"Arigone Hotel Vinárna","legend":"restaurace"}},
{"type":"Feature","geometry":{"type":"Point","coordinates":[17.250289409587555,49.5935077042046]},"properties":{"capacity":"82","wheelchair":null,"name":"Moravská restaurace","legend":"restaurace"}},
{"type":"Feature","geometry":{"type":"Point","coordinates":[17.27943270960732,49.60361690420599]},"properties":{"capacity":"89","wheelchair":null,"name":"Restaurace - pizzerie NA PILE","legend":"restaurace"}},
{"type":"Feature","geometry":{"type":"Point","coordinates":[17.249792109587407,49.590605404202684]},"properties":{"capacity":"119","wheelchair":null,"name":"Hostinský pivovar Moritz","legend":"restaurace"}},
{"type":"Feature","geometry":{"type":"Point","coordinates":[17.252183209588996,49.59212380420332]},"properties":{"capacity":"96","wheelchair":null,"name":"The Kathmandu – Nepali Restaurant","legend":"restaurace"}},
{"type":"Feature","geometry":{"type":"Point","coordinates":[17.25040020958699,49.602927304211114]},"properties":{"capacity":"50","wheelchair":null,"name":null,"legend":"restaurace"}},
{"type":"Feature","geometry":{"type":"Point","coordinates":[17.258478409593142,49.59592630420477]},"properties":{"capacity":"96","wheelchair":null,"name":"Svatováclavský pivovar","legend":"restaurace"}},
{"type":"Feature","geometry":{"type":"Point","coordinates":[17.263101209596318,49.59718500420467]},"properties":{"capacity":"93","wheelchair":null,"name":"Restaurace Torture","legend":"restaurace"}},
{"type":"Feature","geometry":{"type":"Point","coordinates":[17.274979609605808,49.58044800419058]},"properties":{"capacity":"57","wheelchair":null,"name":"U Žida","legend":"restaurace"}},
{"type":"Feature","geometry":{"type":"Point","coordinates":[17.256396509592598,49.5828163041959]},"properties":{"capacity":"91","wheelchair":null,"name":"Sokolka","legend":"restaurace"}},
{"type":"Feature","geometry":{"type":"Point","coordinates":[17.24919650958751,49.58307460419752]},"properties":{"capacity":"74","wheelchair":null,"name":"Tropic","legend":"restaurace"}},
{"type":"Feature","geometry":{"type":"Point","coordinates":[17.286553509613167,49.591489104196114]},"properties":{"capacity":"87","wheelchair":null,"name":"U Švejka","legend":"restaurace"}},
{"type":"Feature","geometry":{"type":"Point","coordinates":[17.343587609649983,49.63406890421467]},"properties":{"capacity":"63","wheelchair":null,"name":"Archa","legend":"restaurace"}},
{"type":"Feature","geometry":{"type":"Point","coordinates":[17.25529960959128,49.590643804201676]},"properties":{"capacity":"93","wheelchair":null,"name":"Restaurace Michalský Výpad","legend":"restaurace"}},
{"type":"Feature","geometry":{"type":"Point","coordinates":[17.273445109603998,49.59105880419837]},"properties":{"capacity":"59","wheelchair":null,"name":"Bounty Rock Café","legend":"restaurace"}},
{"type":"Feature","geometry":{"type":"Point","coordinates":[17.266144009598563,49.59563010420298]},"properties":{"capacity":"54","wheelchair":null,"name":"Wok to go","legend":"restaurace"}},
{"type":"Feature","geometry":{"type":"Point","coordinates":[17.269690809601094,49.594994604201844]},"properties":{"capacity":"99","wheelchair":null,"name":"La Scala","legend":"restaurace"}},
{"type":"Feature","geometry":{"type":"Point","coordinates":[17.270299809601536,49.594822104201626]},"properties":{"capacity":"94","wheelchair":null,"name":"Pizzerie Bystřička","legend":"restaurace"}},
{"type":"Feature","geometry":{"type":"Point","coordinates":[17.273262009603837,49.59158540419878]},"properties":{"capacity":"132","wheelchair":null,"name":"American grill bar restaurant","legend":"restaurace"}},
{"type":"Feature","geometry":{"type":"Point","coordinates":[17.278260309607315,49.592091604198174]},"properties":{"capacity":"51","wheelchair":"yes","name":"Pizza la Mia Stazione","legend":"restaurace"}},
{"type":"Feature","geometry":{"type":"Point","coordinates":[17.234560609577375,49.58051520419855]},"properties":{"capacity":"75","wheelchair":null,"name":"Queen","legend":"restaurace"}},
{"type":"Feature","geometry":{"type":"Point","coordinates":[17.248578109586802,49.58698380420036]},"properties":{"capacity":"93","wheelchair":null,"name":"U Ladi","legend":"restaurace"}},
{"type":"Feature","geometry":{"type":"Point","coordinates":[17.22456480956922,49.596438204211694]},"properties":{"capacity":"69","wheelchair":null,"name":"Avion","legend":"restaurace"}},
{"type":"Feature","geometry":{"type":"Point","coordinates":[17.275768809605545,49.59236140419882]},"properties":{"capacity":"90","wheelchair":null,"name":"Benada Restaurant","legend":"restaurace"}},
{"type":"Feature","geometry":{"type":"Point","coordinates":[17.251588209587432,49.60845880421479]},"properties":{"capacity":"58","wheelchair":null,"name":"Jízdárna","legend":"restaurace"}},
{"type":"Feature","geometry":{"type":"Point","coordinates":[17.24533000958373,49.59850880420907]},"properties":{"capacity":"31","wheelchair":null,"name":"Bistro Zdravá pecka","legend":"restaurace"}},
{"type":"Feature","geometry":{"type":"Point","coordinates":[17.230238509572487,49.60679240421785]},"properties":{"capacity":"97","wheelchair":null,"name":"Taverna U Krbu","legend":"restaurace"}},
{"type":"Feature","geometry":{"type":"Point","coordinates":[17.239094909579606,49.5946074042076]},"properties":{"capacity":"85","wheelchair":null,"name":"Restaurace Leguán","legend":"restaurace"}},
{"type":"Feature","geometry":{"type":"Point","coordinates":[17.2524876095907,49.57033780418794]},"properties":{"capacity":"89","wheelchair":"yes","name":"Restaurace a penzion U Klásků","legend":"restaurace"}},
{"type":"Feature","geometry":{"type":"Point","coordinates":[17.249879209588645,49.57334000419049]},"properties":{"capacity":"83","wheelchair":null,"name":"Restaurace, pizzerie Patricie","legend":"restaurace"}},
{"type":"Feature","geometry":{"type":"Point","coordinates":[17.257750609594044,49.57555780419057]},"properties":{"capacity":"42","wheelchair":null,"name":"Hostinec Na Střední","legend":"restaurace"}},
{"type":"Feature","geometry":{"type":"Point","coordinates":[17.27121530960271,49.58713420419605]},"properties":{"capacity":"86","wheelchair":null,"name":"Hospůdka na Prefě","legend":"restaurace"}},
{"type":"Feature","geometry":{"type":"Point","coordinates":[17.2310552095706,49.64171650424208]},"properties":{"capacity":"110","wheelchair":null,"name":"Pivovar Chomout","legend":"restaurace"}},
{"type":"Feature","geometry":{"type":"Point","coordinates":[17.25275960958924,49.59431860420469]},"properties":{"capacity":"66","wheelchair":null,"name":"Green Bar","legend":"restaurace"}},
{"type":"Feature","geometry":{"type":"Point","coordinates":[17.24986500958712,49.59548610420609]},"properties":{"capacity":"51","wheelchair":null,"name":"Viet Village","legend":"restaurace"}},
{"type":"Feature","geometry":{"type":"Point","coordinates":[17.233604009576737,49.580037804198405]},"properties":{"capacity":"54","wheelchair":null,"name":"Jalta","legend":"restaurace"}},
{"type":"Feature","geometry":{"type":"Point","coordinates":[17.2594943095955,49.572219204187896]},"properties":{"capacity":"69","wheelchair":null,"name":"Pizzerie a restaurant OLIS","legend":"restaurace"}},
{"type":"Feature","geometry":{"type":"Point","coordinates":[17.369015809667122,49.64151960421483]},"properties":{"capacity":"57","wheelchair":null,"name":"Chata Pod Věží","legend":"restaurace"}},
{"type":"Feature","geometry":{"type":"Point","coordinates":[17.25581260959205,49.58488480419752]},"properties":{"capacity":"69","wheelchair":null,"name":"Diwali","legend":"restaurace"}},
{"type":"Feature","geometry":{"type":"Point","coordinates":[17.260050509594265,49.59566310420424]},"properties":{"capacity":"39","wheelchair":null,"name":"Coffee Library Zbrojnice Bistro","legend":"restaurace"}},
{"type":"Feature","geometry":{"type":"Point","coordinates":[17.248932909586408,49.596243604206805]},"properties":{"capacity":"73","wheelchair":null,"name":"Taste of India","legend":"restaurace"}},
{"type":"Feature","geometry":{"type":"Point","coordinates":[17.255351609591376,49.590013804201114]},"properties":{"capacity":"100","wheelchair":null,"name":"Taverna Allegra","legend":"restaurace"}},
{"type":"Feature","geometry":{"type":"Point","coordinates":[17.24009250957959,49.604832004214465]},"properties":{"capacity":"33","wheelchair":null,"name":"T2 Thai","legend":"restaurace"}},
{"type":"Feature","geometry":{"type":"Point","coordinates":[17.251180009587994,49.59624310420639]},"properties":{"capacity":"72","wheelchair":"no","name":"Pashupati","legend":"restaurace"}},
{"type":"Feature","geometry":{"type":"Point","coordinates":[17.252401609588464,49.60157780420985]},"properties":{"capacity":"52","wheelchair":null,"name":"Restaurace PEVY","legend":"restaurace"}},
{"type":"Feature","geometry":{"type":"Point","coordinates":[17.254428409590265,49.59647300420589]},"properties":{"capacity":"91","wheelchair":null,"name":"MORavská DOmácí Restaurace","legend":"restaurace"}},
{"type":"Feature","geometry":{"type":"Point","coordinates":[17.24970830958732,49.590983104202955]},"properties":{"capacity":"93","wheelchair":null,"name":"Theresian restaurant","legend":"restaurace"}},
{"type":"Feature","geometry":{"type":"Point","coordinates":[17.28703600961362,49.58989260419489]},"properties":{"capacity":"51","wheelchair":null,"name":"Entree restaurant","legend":"restaurace"}},
{"type":"Feature","geometry":{"type":"Point","coordinates":[17.260823609594766,49.59648650420465]},"properties":{"capacity":"66","wheelchair":null,"name":"U Kristýna","legend":"restaurace"}},
{"type":"Feature","geometry":{"type":"Point","coordinates":[17.249887809587186,49.59471200420556]},"properties":{"capacity":"83","wheelchair":"no","name":"Mikulda","legend":"restaurace"}},
{"type":"Feature","geometry":{"type":"Point","coordinates":[17.258527309593823,49.58667220419823]},"properties":{"capacity":"43","wheelchair":null,"name":"Mex-Dan Restaurant","legend":"restaurace"}},
{"type":"Feature","geometry":{"type":"Point","coordinates":[17.258698509593955,49.58658780419815]},"properties":{"capacity":"50","wheelchair":null,"name":"Lobster Family Restaurant","legend":"restaurace"}},
{"type":"Feature","geometry":{"type":"Point","coordinates":[17.250254609587625,49.592115804203644]},"properties":{"capacity":"100","wheelchair":null,"name":"Los Capolitos","legend":"restaurace"}},
{"type":"Feature","geometry":{"type":"Point","coordinates":[17.250526309587787,49.59261710420392]},"properties":{"capacity":"75","wheelchair":null,"name":"Kikiriki","legend":"restaurace"}},
{"type":"Feature","geometry":{"type":"Point","coordinates":[17.252070509588883,49.59242830420346]},"properties":{"capacity":"120","wheelchair":"no","name":"Greek Grill","legend":"restaurace"}},
{"type":"Feature","geometry":{"type":"Point","coordinates":[17.253806209590163,49.591610404202584]},"properties":{"capacity":"45","wheelchair":null,"name":"Sushi restaurant","legend":"restaurace"}},
{"type":"Feature","geometry":{"type":"Point","coordinates":[17.210272809559413,49.592386904211594]},"properties":{"capacity":"80","wheelchair":"limited","name":"Air Bar","legend":"restaurace"}},
{"type":"Feature","geometry":{"type":"Point","coordinates":[17.340434009647776,49.63421260421535]},"properties":{"capacity":"62","wheelchair":null,"name":"Restaurace Pod věží","legend":"restaurace"}},
{"type":"Feature","geometry":{"type":"Point","coordinates":[17.25106670958818,49.5923593042036]},"properties":{"capacity":"79","wheelchair":"yes","name":"Hi5h","legend":"restaurace"}},
{"type":"Feature","geometry":{"type":"Point","coordinates":[17.246074109584463,49.595347304206705]},"properties":{"capacity":"98","wheelchair":null,"name":"Rusko-ukrajinský restaurant Zina","legend":"restaurace"}},
{"type":"Feature","geometry":{"type":"Point","coordinates":[17.258167609592938,49.5958911042047]},"properties":{"capacity":"85","wheelchair":null,"name":"Maison Viet","legend":"restaurace"}},
{"type":"Feature","geometry":{"type":"Point","coordinates":[17.254535609590757,49.59038740420161]},"properties":{"capacity":"96","wheelchair":null,"name":"Restaurace u Morousů","legend":"restaurace"}},
{"type":"Feature","geometry":{"type":"Point","coordinates":[17.25418050959041,49.592090704202825]},"properties":{"capacity":"47","wheelchair":null,"name":"Side Street s.r.o.","legend":"restaurace"}},
{"type":"Feature","geometry":{"type":"Point","coordinates":[17.239251509579645,49.59541610420813]},"properties":{"capacity":"79","wheelchair":null,"name":"Stodola","legend":"restaurace"}},
{"type":"Feature","geometry":{"type":"Point","coordinates":[17.251724309588486,49.59472980420519]},"properties":{"capacity":"84","wheelchair":null,"name":"U Morice","legend":"restaurace"}},
{"type":"Feature","geometry":{"type":"Point","coordinates":[17.256705309591784,49.59767400420627]},"properties":{"capacity":"45","wheelchair":"no","name":"Bistro U PANA LILKA","legend":"restaurace"}},
{"type":"Feature","geometry":{"type":"Point","coordinates":[17.248053109585964,49.593833904205276]},"properties":{"capacity":"42","wheelchair":null,"name":"Cafe New one","legend":"restaurace"}},
{"type":"Feature","geometry":{"type":"Point","coordinates":[17.25174780958867,49.59222140420342]},"properties":{"capacity":"72","wheelchair":null,"name":"U npr. Lukáše","legend":"restaurace"}},
{"type":"Feature","geometry":{"type":"Point","coordinates":[17.25901280959349,49.59652420420497]},"properties":{"capacity":"42","wheelchair":null,"name":"Bistro DaG","legend":"restaurace"}},
{"type":"Feature","geometry":{"type":"Point","coordinates":[17.225929809571074,49.583742004202485]},"properties":{"capacity":"100","wheelchair":null,"name":"Pizza Pollo","legend":"restaurace"}},
{"type":"Feature","geometry":{"type":"Point","coordinates":[17.22605560957116,49.583605104202384]},"properties":{"capacity":"71","wheelchair":null,"name":"RISTORANTE POLLO","legend":"restaurace"}},
{"type":"Feature","geometry":{"type":"Point","coordinates":[17.251128509588586,49.58730090420006]},"properties":{"capacity":"51","wheelchair":null,"name":null,"legend":"restaurace"}},
{"type":"Feature","geometry":{"type":"Point","coordinates":[17.343555109650065,49.632623904213624]},"properties":{"capacity":"42","wheelchair":null,"name":"U Máci","legend":"restaurace"}},
{"type":"Feature","geometry":{"type":"Point","coordinates":[17.286147509612718,49.593883004197856]},"properties":{"capacity":"96","wheelchair":null,"name":"Restaurace Na Hřišti","legend":"restaurace"}},
{"type":"Feature","geometry":{"type":"Point","coordinates":[17.223773409568665,49.596359204211815]},"properties":{"capacity":"46","wheelchair":"yes","name":"Caruso Pizza & Pasta","legend":"restaurace"}},
{"type":"Feature","geometry":{"type":"Point","coordinates":[17.264801109598494,49.582888204194376]},"properties":{"capacity":"48","wheelchair":null,"name":"Mama's Burger","legend":"restaurace"}},
{"type":"Feature","geometry":{"type":"Point","coordinates":[17.296990109619262,49.60881460420623]},"properties":{"capacity":"73","wheelchair":null,"name":"Restaurace Nutrend","legend":"restaurace"}},
{"type":"Feature","geometry":{"type":"Point","coordinates":[17.27954330960745,49.602897104205475]},"properties":{"capacity":"66","wheelchair":null,"name":"Zhe Wen - Wok & Sushi","legend":"restaurace"}},
{"type":"Feature","geometry":{"type":"Point","coordinates":[17.22198100956703,49.601824204216]},"properties":{"capacity":"68","wheelchair":null,"name":"Restaurace Globus","legend":"restaurace"}},
{"type":"Feature","geometry":{"type":"Point","coordinates":[17.221766609566878,49.6015969042158]},"properties":{"capacity":"122","wheelchair":null,"name":"Grill Globus","legend":"restaurace"}},
{"type":"Feature","geometry":{"type":"Point","coordinates":[17.26658940959923,49.59045420419932]},"properties":{"capacity":"29","wheelchair":null,"name":"BEATA lunch & coffee","legend":"restaurace"}},
{"type":"Feature","geometry":{"type":"Point","coordinates":[17.26184070959597,49.589267904199424]},"properties":{"capacity":"50","wheelchair":null,"name":"Bistro Paulus","legend":"restaurace"}},
{"type":"Feature","geometry":{"type":"Point","coordinates":[17.271345209602533,49.591121204198835]},"properties":{"capacity":"73","wheelchair":null,"name":"Zhu Te Miao","legend":"restaurace"}},
{"type":"Feature","geometry":{"type":"Point","coordinates":[17.276612209606213,49.59120810419781]},"properties":{"capacity":"86","wheelchair":null,"name":"Jídelna Poliklinika Agel","legend":"restaurace"}},
{"type":"Feature","geometry":{"type":"Point","coordinates":[17.25279770958928,49.594040604204494]},"properties":{"capacity":"78","wheelchair":null,"name":"Potrefená husa Olomouc","legend":"restaurace"}},
{"type":"Feature","geometry":{"type":"Point","coordinates":[17.25062910958793,49.591543504203194]},"properties":{"capacity":"57","wheelchair":null,"name":"Koza zůstala celá","legend":"restaurace"}},
{"type":"Feature","geometry":{"type":"Point","coordinates":[17.25512490959092,49.594115104204064]},"properties":{"capacity":"47","wheelchair":null,"name":"Kafec","legend":"restaurace"}},
{"type":"Feature","geometry":{"type":"Point","coordinates":[17.24546980958402,49.595647104207046]},"properties":{"capacity":"44","wheelchair":null,"name":"CÔDÔ Palackého","legend":"restaurace"}},
{"type":"Feature","geometry":{"type":"Point","coordinates":[17.24567080958404,49.59731820420819]},"properties":{"capacity":"58","wheelchair":null,"name":"Slovanský dům","legend":"restaurace"}},
{"type":"Feature","geometry":{"type":"Point","coordinates":[17.254250309590578,49.590158604201505]},"properties":{"capacity":"73","wheelchair":null,"name":"Kateřinská 10","legend":"restaurace"}},
{"type":"Feature","geometry":{"type":"Point","coordinates":[17.360516509662535,49.62318770420376]},"properties":{"capacity":"66","wheelchair":null,"name":"Hospůdka Na Váze","legend":"restaurace"}},
{"type":"Feature","geometry":{"type":"Point","coordinates":[17.285296009612548,49.587670704193705]},"properties":{"capacity":"58","wheelchair":null,"name":"Risto","legend":"restaurace"}},
{"type":"Feature","geometry":{"type":"Point","coordinates":[17.25169720958841,49.595510904205696]},"properties":{"capacity":"56","wheelchair":null,"name":"Maido","legend":"restaurace"}},
{"type":"Feature","geometry":{"type":"Point","coordinates":[17.248031909585876,49.59483610420601]},"properties":{"capacity":"98","wheelchair":null,"name":"Čtyřlístek","legend":"restaurace"}},
{"type":"Feature","geometry":{"type":"Point","coordinates":[17.24892110958652,49.59451000420562]},"properties":{"capacity":"79","wheelchair":null,"name":"Pasta Bar","legend":"restaurace"}},
{"type":"Feature","geometry":{"type":"Point","coordinates":[17.25049030958759,49.5949438042056]},"properties":{"capacity":"98","wheelchair":null,"name":"Banyan Restaurant","legend":"restaurace"}},
{"type":"Feature","geometry":{"type":"Point","coordinates":[17.248403309587584,49.57393640419124]},"properties":{"capacity":"43","wheelchair":null,"name":"Sushi bar Yanagi","legend":"restaurace"}},
{"type":"Feature","geometry":{"type":"Point","coordinates":[17.262121909595617,49.59707890420479]},"properties":{"capacity":"85","wheelchair":null,"name":"Pho co Asian foods","legend":"restaurace"}},
{"type":"Feature","geometry":{"type":"Point","coordinates":[17.258627709593878,49.58692030419839]},"properties":{"capacity":"28","wheelchair":null,"name":"Lobster Bistro","legend":"restaurace"}},
{"type":"Feature","geometry":{"type":"Point","coordinates":[17.25678260959254,49.58750240419915]},"properties":{"capacity":"92","wheelchair":null,"name":"MEX-DAN restaurant","legend":"restaurace"}},
{"type":"Feature","geometry":{"type":"Point","coordinates":[17.256748009592503,49.587593504199255]},"properties":{"capacity":"65","wheelchair":null,"name":"Mango","legend":"restaurace"}},
{"type":"Feature","geometry":{"type":"Point","coordinates":[17.256715309592487,49.5876796041993]},"properties":{"capacity":"76","wheelchair":null,"name":"Červené jablko","legend":"restaurace"}},
{"type":"Feature","geometry":{"type":"Point","coordinates":[17.256663209592435,49.58781670419939]},"properties":{"capacity":"53","wheelchair":null,"name":"Bombay Express","legend":"restaurace"}},
{"type":"Feature","geometry":{"type":"Point","coordinates":[17.257103809592756,49.587487904199065]},"properties":{"capacity":"66","wheelchair":null,"name":"Spaghetti Parmigiano","legend":"restaurace"}},
{"type":"Feature","geometry":{"type":"Point","coordinates":[17.25794250959336,49.58733650419876]},"properties":{"capacity":"33","wheelchair":null,"name":"TENMANYA - Running Sushi","legend":"restaurace"}},
{"type":"Feature","geometry":{"type":"Point","coordinates":[17.24261820958194,49.596653004208335]},"properties":{"capacity":"94","wheelchair":null,"name":"Kung Food","legend":"restaurace"}},
{"type":"Feature","geometry":{"type":"Point","coordinates":[17.242973409581563,49.60558030421447]},"properties":{"capacity":"40","wheelchair":null,"name":"Pizza Hradlo","legend":"restaurace"}},
{"type":"Feature","geometry":{"type":"Point","coordinates":[17.228127909574603,49.554548204181586]},"properties":{"capacity":"104","wheelchair":null,"name":"Motorest Bigboss","legend":"restaurace"}},
{"type":"Feature","geometry":{"type":"Point","coordinates":[17.277377809606772,49.59097530419749]},"properties":{"capacity":"52","wheelchair":null,"name":"818 Restaurant","legend":"restaurace"}},
{"type":"Feature","geometry":{"type":"Point","coordinates":[17.25918500959361,49.5963664042049]},"properties":{"capacity":"56","wheelchair":null,"name":"CÔDÔ","legend":"restaurace"}},
{"type":"Feature","geometry":{"type":"Point","coordinates":[17.258371209593047,49.59638410420506]},"properties":{"capacity":"89","wheelchair":null,"name":"Špagetárna","legend":"restaurace"}},
{"type":"Feature","geometry":{"type":"Point","coordinates":[17.24892970958642,49.59618830420682]},"properties":{"capacity":"68","wheelchair":null,"name":"Sushi Hub","legend":"restaurace"}},
{"type":"Feature","geometry":{"type":"Point","coordinates":[17.2250488095704,49.58437940420313]},"properties":{"capacity":"92","wheelchair":null,"name":"Litchi","legend":"restaurace"}},
{"type":"Feature","geometry":{"type":"Point","coordinates":[17.257157409592097,49.59785350420627]},"properties":{"capacity":"40","wheelchair":"yes","name":"Fishi Sushi","legend":"restaurace"}},
{"type":"Feature","geometry":{"type":"Point","coordinates":[17.21798770956466,49.595279504212144]},"properties":{"capacity":"80","wheelchair":null,"name":"Restaurace Rigani","legend":"restaurace"}},
{"type":"Feature","geometry":{"type":"Point","coordinates":[17.252033909588917,49.59156440420293]},"properties":{"capacity":"54","wheelchair":null,"name":"WAY","legend":"restaurace"}},
{"type":"Feature","geometry":{"type":"Point","coordinates":[17.249403209586745,49.5962625042067]},"properties":{"capacity":"95","wheelchair":null,"name":"U Floriána","legend":"restaurace"}},
{"type":"Feature","geometry":{"type":"Point","coordinates":[17.25341190958944,49.59797180420713]},"properties":{"capacity":"99","wheelchair":null,"name":"Vosíme","legend":"restaurace"}}]}