{
"type": "FeatureCollection",
"name": "BudovyUP",
"features": [
{ "type": "Feature", "properties": { "ID": 1, "nazevCZ": "Cyrilometodějská teologická fakulta – hlavní budova", "FAKULTA": "Teologická" }, "geometry": { "type": "Point", "coordinates": [ 17.254943609590715, 49.594718104204482 ] } },
{ "type": "Feature", "properties": { "ID": 2, "nazevCZ": "Cyrilometodějská teologická fakulta", "FAKULTA": "Teologická" }, "geometry": { "type": "Point", "coordinates": [ 17.254553273046668, 49.594363004824615 ] } },
{ "type": "Feature", "properties": { "ID": 4, "nazevCZ": "Lékařská fakulta – Ústav molekulární a translační medicíny", "FAKULTA": "Lékařská" }, "geometry": { "type": "Point", "coordinates": [ 17.235187209577401, 49.586075804202267 ] } },
{ "type": "Feature", "properties": { "ID": 5, "nazevCZ": "Lékařská fakulta – Teoretické ústavy", "FAKULTA": "Lékařská" }, "geometry": { "type": "Point", "coordinates": [ 17.236505609578334, 49.586065304202023 ] } },
{ "type": "Feature", "properties": { "ID": 6, "nazevCZ": "Fakultní nemocnice Olomouc – klinická pracoviště LF UP", "FAKULTA": "Lékařská" }, "geometry": { "type": "Point", "coordinates": [ 17.238215309579708, 49.583679204200003 ] } },
{ "type": "Feature", "properties": { "ID": 7, "nazevCZ": "Lékařská fakulta – klinika zubního lékařství", "FAKULTA": "Lékařská" }, "geometry": { "type": "Point", "coordinates": [ 17.244677809583408, 49.595987804207418 ] } },
{ "type": "Feature", "properties": { "ID": 8, "nazevCZ": "Filozofická fakulta – hlavní budova", "FAKULTA": "Filozofická" }, "geometry": { "type": "Point", "coordinates": [ 17.259798176111257, 49.594317136036572 ] } },
{ "type": "Feature", "properties": { "ID": 9, "nazevCZ": "Filozofická fakulta", "FAKULTA": "Filozofická" }, "geometry": { "type": "Point", "coordinates": [ 17.260426409594565, 49.594836404203548 ] } },
{ "type": "Feature", "properties": { "ID": 10, "nazevCZ": "Filozofická fakulta", "FAKULTA": "Filozofická" }, "geometry": { "type": "Point", "coordinates": [ 17.26095640959495, 49.594681704203332 ] } },
{ "type": "Feature", "properties": { "ID": 11, "nazevCZ": "Filozofická fakulta", "FAKULTA": "Filozofická" }, "geometry": { "type": "Point", "coordinates": [ 17.254563909590491, 49.594236904204259 ] } },
{ "type": "Feature", "properties": { "ID": 13, "nazevCZ": "Filozofická fakulta", "FAKULTA": "Filozofická" }, "geometry": { "type": "Point", "coordinates": [ 17.255319409590978, 49.594884404204521 ] } },
{ "type": "Feature", "properties": { "ID": 14, "nazevCZ": "Filozofická fakulta", "FAKULTA": "Filozofická" }, "geometry": { "type": "Point", "coordinates": [ 17.25434810959019, 49.596229704205641 ] } },
{ "type": "Feature", "properties": { "ID": 15, "nazevCZ": "Přírodovědecká fakulta – hlavní budova", "FAKULTA": "Přírodovědecká" }, "geometry": { "type": "Point", "coordinates": [ 17.2635000095969, 49.592400004201188 ] } },
{ "type": "Feature", "properties": { "ID": 16, "nazevCZ": "Přírodovědecká fakulta – Společná laboratoř optiky", "FAKULTA": "Přírodovědecká" }, "geometry": { "type": "Point", "coordinates": [ 17.26576640959841, 49.593468904201522 ] } },
{ "type": "Feature", "properties": { "ID": 17, "nazevCZ": "Přírodovědecká fakulta, Šlechtitelů – budova 47", "FAKULTA": "Přírodovědecká" }, "geometry": { "type": "Point", "coordinates": [ 17.280449209609955, 49.575594704186081 ] } },
{ "type": "Feature", "properties": { "ID": 18, "nazevCZ": "Přírodovědecká fakulta", "FAKULTA": "Přírodovědecká" }, "geometry": { "type": "Point", "coordinates": [ 17.265540809598221, 49.593825304201857 ] } },
{ "type": "Feature", "properties": { "ID": 19, "nazevCZ": "Pevnost poznání", "FAKULTA": "Přírodovědecká" }, "geometry": { "type": "Point", "coordinates": [ 17.257975309592982, 49.592897504202611 ] } },
{ "type": "Feature", "properties": { "ID": 20, "nazevCZ": "Botanická zahrada", "FAKULTA": "Přírodovědecká" }, "geometry": { "type": "Point", "coordinates": [ 17.250212809587996, 49.586159704199353 ] } },
{ "type": "Feature", "properties": { "ID": 21, "nazevCZ": "Pedagogická fakulta", "FAKULTA": "Pedagogická" }, "geometry": { "type": "Point", "coordinates": [ 17.253664709589934, 49.593011404203537 ] } },
{ "type": "Feature", "properties": { "ID": 22, "nazevCZ": "Pedagogická fakulta", "FAKULTA": "Pedagogická" }, "geometry": { "type": "Point", "coordinates": [ 17.255281709590967, 49.594488104204267 ] } },
{ "type": "Feature", "properties": { "ID": 23, "nazevCZ": "Pedagogická fakulta – hlavní budova", "FAKULTA": "Pedagogická" }, "geometry": { "type": "Point", "coordinates": [ 17.264644409597466, 49.595710304203294 ] } },
{ "type": "Feature", "properties": { "ID": 24, "nazevCZ": "Fakulta tělesné kultury – Budova HY (Hynaisova)", "FAKULTA": "Tělesné kultury" }, "geometry": { "type": "Point", "coordinates": [ 17.243754409582689, 49.596886904208219 ] } },
{ "type": "Feature", "properties": { "ID": 25, "nazevCZ": "Fakulta tělesné kultury – Budova NC (budova pedagogů)", "FAKULTA": "Tělesné kultury" }, "geometry": { "type": "Point", "coordinates": [ 17.215515309562903, 49.594929204212384 ] } },
{ "type": "Feature", "properties": { "ID": 26, "nazevCZ": "Fakulta tělesné kultury – Budova NA (děkanát)", "FAKULTA": "Tělesné kultury" }, "geometry": { "type": "Point", "coordinates": [ 17.213474209561504, 49.594453304212365 ] } },
{ "type": "Feature", "properties": { "ID": 27, "nazevCZ": "Fakulta tělesné kultury – Budova NB (AC BALUO a Centrum kinantropologického výzkumu)", "FAKULTA": "Tělesné kultury" }, "geometry": { "type": "Point", "coordinates": [ 17.212650809560966, 49.593766404212083 ] } },
{ "type": "Feature", "properties": { "ID": 28, "nazevCZ": "Právnická fakulta", "FAKULTA": "Právnická" }, "geometry": { "type": "Point", "coordinates": [ 17.261952209595979, 49.590126704199918 ] } },
{ "type": "Feature", "properties": { "ID": 29, "nazevCZ": "Právnická fakulta – hlavní budova", "FAKULTA": "Právnická" }, "geometry": { "type": "Point", "coordinates": [ 17.262646409596407, 49.590795604200302 ] } },
{ "type": "Feature", "properties": { "ID": 30, "nazevCZ": "Fakulta zdravotnických věd – hlavní budova", "FAKULTA": "Zdravotnických věd" }, "geometry": { "type": "Point", "coordinates": [ 17.23672030957847, 49.586353904202163 ] } },
{ "type": "Feature", "properties": { "ID": 31, "nazevCZ": "Fakulta zdravotnických věd", "FAKULTA": "Zdravotnických věd" }, "geometry": { "type": "Point", "coordinates": [ 17.247066109585202, 49.594371404205809 ] } },
{ "type": "Feature", "properties": { "ID": 32, "nazevCZ": "Menza 17. listopadu", "FAKULTA": "Stravování" }, "geometry": { "type": "Point", "coordinates": [ 17.265869209598417, 49.594346104202096 ] } },
{ "type": "Feature", "properties": { "ID": 33, "nazevCZ": "Menza Josefa Jařaba", "FAKULTA": "Stravování" }, "geometry": { "type": "Point", "coordinates": [ 17.266470009598862, 49.59412360420184 ] } },
{ "type": "Feature", "properties": { "ID": 34, "nazevCZ": "Menza Křížkovského", "FAKULTA": "Stravování" }, "geometry": { "type": "Point", "coordinates": [ 17.25913582275815, 49.594939890760237 ] } },
{ "type": "Feature", "properties": { "ID": 35, "nazevCZ": "Menza Neředín", "FAKULTA": "Stravování" }, "geometry": { "type": "Point", "coordinates": [ 17.214331909562098, 49.594681904212351 ] } },
{ "type": "Feature", "properties": { "ID": 36, "nazevCZ": "Menza Holice", "FAKULTA": "Stravování" }, "geometry": { "type": "Point", "coordinates": [ 17.282784409611605, 49.575376904185504 ] } },
{ "type": "Feature", "properties": { "ID": 37, "nazevCZ": "Menza Lékařská fakulta", "FAKULTA": "Stravování" }, "geometry": { "type": "Point", "coordinates": [ 17.236269409578156, 49.586319204202219 ] } },
{ "type": "Feature", "properties": { "ID": 38, "nazevCZ": "Kolej Generála Svobody", "FAKULTA": "Kolej" }, "geometry": { "type": "Point", "coordinates": [ 17.264908995358915, 49.591581104670446 ] } },
{ "type": "Feature", "properties": { "ID": 39, "nazevCZ": "Kolej J. L. Fishera", "FAKULTA": "Kolej" }, "geometry": { "type": "Point", "coordinates": [ 17.266190309598777, 49.592568604200792 ] } },
{ "type": "Feature", "properties": { "ID": 40, "nazevCZ": "Kolej Bedřicha Václavka", "FAKULTA": "Kolej" }, "geometry": { "type": "Point", "coordinates": [ 17.266880809599222, 49.593191904201106 ] } },
{ "type": "Feature", "properties": { "ID": 41, "nazevCZ": "Kolej Josefa Jařaba", "FAKULTA": "Kolej" }, "geometry": { "type": "Point", "coordinates": [ 17.266433109598839, 49.594177204201834 ] } },
{ "type": "Feature", "properties": { "ID": 42, "nazevCZ": "Kolej 17. listopadu", "FAKULTA": "Kolej" }, "geometry": { "type": "Point", "coordinates": [ 17.265354209598048, 49.594572204202414 ] } },
{ "type": "Feature", "properties": { "ID": 43, "nazevCZ": "Kolej Neředín I", "FAKULTA": "Kolej" }, "geometry": { "type": "Point", "coordinates": [ 17.214826109562427, 49.59478530421238 ] } },
{ "type": "Feature", "properties": { "ID": 44, "nazevCZ": "Kolej Neředín II", "FAKULTA": "Kolej" }, "geometry": { "type": "Point", "coordinates": [ 17.21495390956256, 49.594236704211987 ] } },
{ "type": "Feature", "properties": { "ID": 45, "nazevCZ": "Kolej Neředín III", "FAKULTA": "Kolej" }, "geometry": { "type": "Point", "coordinates": [ 17.214100609561971, 49.593989204211915 ] } },
{ "type": "Feature", "properties": { "ID": 46, "nazevCZ": "Kolej Neředín IV", "FAKULTA": "Kolej" }, "geometry": { "type": "Point", "coordinates": [ 17.213369709561473, 49.593846404211973 ] } },
{ "type": "Feature", "properties": { "ID": 47, "nazevCZ": "Kolej Evžena Rošického ", "FAKULTA": "Kolej" }, "geometry": { "type": "Point", "coordinates": [ 17.248806109585868, 49.602387804211027 ] } },
{ "type": "Feature", "properties": { "ID": 48, "nazevCZ": "Kolej Chválkovice", "FAKULTA": "Kolej" }, "geometry": { "type": "Point", "coordinates": [ 17.285245309611092, 49.607621404207634 ] } },
{ "type": "Feature", "properties": { "ID": 49, "nazevCZ": "Ubytovna Vančurova", "FAKULTA": "Kolej" }, "geometry": { "type": "Point", "coordinates": [ 17.246878109585076, 49.594205604205719 ] } },
{ "type": "Feature", "properties": { "ID": 50, "nazevCZ": "UP – hlavní budova", "FAKULTA": "Univerzita" }, "geometry": { "type": "Point", "coordinates": [ 17.259216109593698, 49.595125804203953 ] } },
{ "type": "Feature", "properties": { "ID": 51, "nazevCZ": "Tereziánská zbrojnice", "FAKULTA": "Univerzita" }, "geometry": { "type": "Point", "coordinates": [ 17.260120009594296, 49.595705604204205 ] } },
{ "type": "Feature", "properties": { "ID": 52, "nazevCZ": "Vědeckotechnický park UP – blok B", "FAKULTA": "VTP" }, "geometry": { "type": "Point", "coordinates": [ 17.281849709610906, 49.576063304186192 ] } },
{ "type": "Feature", "properties": { "ID": 53, "nazevCZ": "Akademik sport centrum UP", "FAKULTA": "Sport" }, "geometry": { "type": "Point", "coordinates": [ 17.250638909587092, 49.603428104211432 ] } },
{ "type": "Feature", "properties": { "ID": 54, "nazevCZ": "Sportovní hala UP", "FAKULTA": "Sport" }, "geometry": { "type": "Point", "coordinates": [ 17.250084209586749, 49.602829404211107 ] } },
{ "type": "Feature", "properties": { "ID": 55, "nazevCZ": "Správa kolejí a menz", "FAKULTA": "Univerzita" }, "geometry": { "type": "Point", "coordinates": [ 17.26499670959798, 49.591787804200521 ] } },
{ "type": "Feature", "properties": { "ID": 56, "nazevCZ": "UPoint", "FAKULTA": "Univerzita" }, "geometry": { "type": "Point", "coordinates": [ 17.252643909589157, 49.593895004204377 ] } },
{ "type": "Feature", "properties": { "ID": 57, "nazevCZ": "Loděnice SKUP", "FAKULTA": "Sport" }, "geometry": { "type": "Point", "coordinates": [ 17.250059409586665, 49.603535804211646 ] } },
{ "type": "Feature", "properties": { "ID": 58, "nazevCZ": "FreshUP PřF", "FAKULTA": "Stravování" }, "geometry": { "type": "Point", "coordinates": [ 17.263379659284141, 49.592364277365824 ] } },
{ "type": "Feature", "properties": { "ID": 59, "nazevCZ": "FreshUP FF", "FAKULTA": "Stravování" }, "geometry": { "type": "Point", "coordinates": [ 17.259850351724598, 49.594280799448711 ] } },
{ "type": "Feature", "properties": { "ID": 62, "nazevCZ": "Vědeckotechnický park UP – blok C", "FAKULTA": "VTP" }, "geometry": { "type": "Point", "coordinates": [ 17.280799409610172, 49.576056904186395 ] } },
{ "type": "Feature", "properties": { "ID": 63, "nazevCZ": "Vědeckotechnický park UP – blok A", "FAKULTA": "VTP" }, "geometry": { "type": "Point", "coordinates": [ 17.281285009610542, 49.575532504185901 ] } },
{ "type": "Feature", "properties": { "ID": 64, "nazevCZ": "Knihovna Přírodovědecké fakulty UP – Šlechtitelů", "FAKULTA": "Přírodovědecká" }, "geometry": { "type": "Point", "coordinates": [ 17.282787209611595, 49.575597804185669 ] } },
{ "type": "Feature", "properties": { "ID": 65, "nazevCZ": "Přírodovědecká fakulta, Šlechtitelů – budova 51", "FAKULTA": "Přírodovědecká" }, "geometry": { "type": "Point", "coordinates": [ 17.282037120330916, 49.574971644690741 ] } },
{ "type": "Feature", "properties": { "ID": 66, "nazevCZ": "Šlechtitelů – budova F2. Sdílené pracoviště Centrum regionu Haná pro biotechnologický a zemědělský výzkum (CATRIN) a PřF UP", "FAKULTA": "CATRIN" }, "geometry": { "type": "Point", "coordinates": [ 17.281822216042865, 49.573809569651651 ] } },
{ "type": "Feature", "properties": { "ID": 67, "nazevCZ": "Šlechtitelů – budova G1. Sdílené pracoviště Regionální centrum pokročilých technologií a materiálů (CATRIN) a PřF UP", "FAKULTA": "CATRIN" }, "geometry": { "type": "Point", "coordinates": [ 17.282718977146086, 49.574878784813187 ] } },
{ "type": "Feature", "properties": { "ID": 68, "nazevCZ": "Šlechtitelů – budova H1. Sdílené pracoviště Centrum regionu Haná pro biotechnologický a zemědělský výzkum (CATRIN) a PřF UP", "FAKULTA": "CATRIN" }, "geometry": { "type": "Point", "coordinates": [ 17.282355497053956, 49.575687992317583 ] } },
{ "type": "Feature", "properties": { "ID": 69, "nazevCZ": "Přírodovědecká fakulta, Šlechtitelů – budova 49", "FAKULTA": "Přírodovědecká" }, "geometry": { "type": "Point", "coordinates": [ 17.28190190961098, 49.575530004185815 ] } },
{ "type": "Feature", "properties": { "ID": 70, "nazevCZ": "Přírodovědecká fakulta, Šlechtitelů – budova 53", "FAKULTA": "Přírodovědecká" }, "geometry": { "type": "Point", "coordinates": [ 17.280630009610121, 49.575000004185704 ] } },
{ "type": "Feature", "properties": { "ID": 71, "nazevCZ": "Přírodovědecká fakulta, Šlechtitelů – budova 52", "FAKULTA": "Přírodovědecká" }, "geometry": { "type": "Point", "coordinates": [ 17.281201909610523, 49.575044704185579 ] } },
{ "type": "Feature", "properties": { "ID": 72, "nazevCZ": "Šlechtitelů – budova D. VÚRV (Výzkumný ústav rostlinné výroby, v. v. i.)", "FAKULTA": "Přírodovědecká" }, "geometry": { "type": "Point", "coordinates": [ 17.279984209609747, 49.573890004185017 ] } },
{ "type": "Feature", "properties": { "ID": 73, "nazevCZ": "Šlechtitelů – budova E. EUB (Ústav experimentální botaniky AV ČR, v. v. i.)", "FAKULTA": "Přírodovědecká" }, "geometry": { "type": "Point", "coordinates": [ 17.283095609611941, 49.57371940418431 ] } },
{ "type": "Feature", "properties": { "ID": 74, "nazevCZ": "Lékařská fakulta – dostavba Teoretických ústavů", "FAKULTA": "Lékařská" }, "geometry": { "type": "Point", "coordinates": [ 17.235792209577799, 49.586506904202452 ] } },
{ "type": "Feature", "properties": { "ID": 75, "nazevCZ": "Filozofická fakulta", "FAKULTA": "Filozofická" }, "geometry": { "type": "Point", "coordinates": [ 17.251429409588546, 49.590243304202069 ] } },
{ "type": "Feature", "properties": { "ID": 76, "nazevCZ": "Cyrilometodějská teologická fakulta ", "FAKULTA": "Teologická" }, "geometry": { "type": "Point", "coordinates": [ 17.254851409590962, 49.59020390420136 ] } },
{ "type": "Feature", "properties": { "ID": 77, "nazevCZ": "Šlechtitelů – budova F2. Sdílené pracoviště Centrum regionu Haná pro biotechnologický a zemědělský výzkum (CATRIN) a PřF UP", "FAKULTA": "Přírodovědecká" }, "geometry": { "type": "Point", "coordinates": [ 17.281945009611125, 49.573880004184623 ] } },
{ "type": "Feature", "properties": { "ID": 78, "nazevCZ": "Šlechtitelů – budova G1. Sdílené pracoviště Regionální centrum pokročilých technologií a materiálů (CATRIN) a PřF UP", "FAKULTA": "Přírodovědecká" }, "geometry": { "type": "Point", "coordinates": [ 17.282787209611648, 49.574738604185065 ] } },
{ "type": "Feature", "properties": { "ID": 79, "nazevCZ": "Šlechtitelů – budova H1. Sdílené pracoviště Centrum regionu Haná pro biotechnologický a zemědělský výzkum (CATRIN) a PřF UP", "FAKULTA": "Přírodovědecká" }, "geometry": { "type": "Point", "coordinates": [ 17.282288309611243, 49.575530004185765 ] } },
{ "type": "Feature", "properties": { "ID": 80, "nazevCZ": "Envelopa Hub (Centrum inovací a transferu technologií Univerzity Palackého v Olomouci)", "FAKULTA": "VTP" }, "geometry": { "type": "Point", "coordinates": [ 17.263477809596985, 49.590898904200209 ] } },
{ "type": "Feature", "properties": { "ID": 81, "nazevCZ": "Fakulta zdravotnických věd", "FAKULTA": "Zdravotnických věd" }, "geometry": { "type": "Point", "coordinates": [ 17.23354080957602, 49.589297504204865 ] } }
]
}
